[
  {
    "lng": 103.5129,
    "lat": 1.1751,
    "content": {
      "width": 200,
      "height": 50,
      "title": "Singapore",
      "titleFontSize": 32,
      "titleColor": "#ffffff",
      "content": "",
      "contentColor": "",
      "contentFontSize": 40,
      "paddingLeft": 90,
      "paddingRight": 60,
      "paddingTop": 110,
      "fontFamily": "Arial",
      "bgImgUrl": ""
    }
  },
  {
    "lng": 151.1231,
    "lat": -33.5206,
    "content": {
      "width": 200,
      "height": 50,
      "title": "Sydney",
      "titleFontSize": 32,
      "titleColor": "#ffffff",
      "content": "",
      "contentColor": "",
      "contentFontSize": 40,
      "paddingLeft": 90,
      "paddingRight": 60,
      "paddingTop": 110,
      "fontFamily": "Arial",
      "bgImgUrl": ""
    }
  },
  {
    "lng": 101.4200,
    "lat": 3.800,
    "content": {
      "width": 200,
      "height": 50,
      "title": "Kuala Lumpur",
      "titleFontSize": 32,
      "titleColor": "#ffffff",
      "content": "",
      "contentColor": "",
      "contentFontSize": 40,
      "paddingLeft": 90,
      "paddingRight": 60,
      "paddingTop": 110,
      "fontFamily": "Arial",
      "bgImgUrl": ""
    }
  },
  {
    "lng": 106.5006,
    "lat": -6.1243,
    "content": {
      "width": 200,
      "height": 50,
      "title": "Jarkata",
      "titleFontSize": 32,
      "titleColor": "#ffffff",
      "content": "",
      "contentColor": "",
      "contentFontSize": 40,
      "paddingLeft": 90,
      "paddingRight": 60,
      "paddingTop": 110,
      "fontFamily": "Arial",
      "bgImgUrl": ""
    }
  },
  {
    "lng": 72.8783,
    "lat": 19.1222,
    "content": {
      "width": 200,
      "height": 50,
      "title": "Mumbai",
      "titleFontSize": 32,
      "titleColor": "#ffffff",
      "content": "",
      "contentColor": "",
      "contentFontSize": 40,
      "paddingLeft": 90,
      "paddingRight": 60,
      "paddingTop": 110,
      "fontFamily": "Arial",
      "bgImgUrl": ""
    }
  },
  {
    "lng": 139.5648,
    "lat": 35.4506,
    "content": {
      "width": 200,
      "height": 50,
      "title": "Tokyo",
      "titleFontSize": 32,
      "titleColor": "#ffffff",
      "content": "",
      "contentColor": "",
      "contentFontSize": 40,
      "paddingLeft": 90,
      "paddingRight": 60,
      "paddingTop": 110,
      "fontFamily": "Arial",
      "bgImgUrl": ""
    }
  },
  {
    "lng": -78.5281,
    "lat": 37.1840,
    "content": {
      "width": 200,
      "height": 50,
      "title": "Virginia",
      "titleFontSize": 32,
      "titleColor": "#ffffff",
      "content": "",
      "contentColor": "",
      "contentFontSize": 40,
      "paddingLeft": 90,
      "paddingRight": 60,
      "paddingTop": 110,
      "fontFamily": "Arial",
      "bgImgUrl": ""
    }
  },
  {
    "lng": -121.8450,
    "lat": 37.3262,
    "content": {
      "width": 200,
      "height": 50,
      "title": "Silicon Valley",
      "titleFontSize": 32,
      "titleColor": "#ffffff",
      "content": "",
      "contentColor": "",
      "contentFontSize": 40,
      "paddingLeft": 90,
      "paddingRight": 60,
      "paddingTop": 110,
      "fontFamily": "Arial",
      "bgImgUrl": ""
    }
  },
  {
    "lng": 8.6776,
    "lat": 50.1233,
    "content": {
      "width": 200,
      "height": 50,
      "title": "Frankfurt",
      "titleFontSize": 32,
      "titleColor": "#ffffff",
      "content": "",
      "contentColor": "",
      "contentFontSize": 40,
      "paddingLeft": 90,
      "paddingRight": 60,
      "paddingTop": 110,
      "fontFamily": "Arial",
      "bgImgUrl": ""
    }
  },
  {
    "lng": -0.1374,
    "lat": 51.5563,
    "content": {
      "width": 200,
      "height": 50,
      "title": "London",
      "titleFontSize": 32,
      "titleColor": "#ffffff",
      "content": "",
      "contentColor": "",
      "contentFontSize": 40,
      "paddingLeft": 90,
      "paddingRight": 60,
      "paddingTop": 110,
      "fontFamily": "Arial",
      "bgImgUrl": ""
    }
  },
  {
    "lng": 55.3259,
    "lat": 25.1208,
    "content": {
      "width": 200,
      "height": 50,
      "title": "Dubai",
      "titleFontSize": 32,
      "titleColor": "#ffffff",
      "content": "",
      "contentColor": "",
      "contentFontSize": 40,
      "paddingLeft": 90,
      "paddingRight": 60,
      "paddingTop": 110,
      "fontFamily": "Arial",
      "bgImgUrl": ""
    }
  },
  {
    "lng": 114.1915,
    "lat": 22.3253,
    "content": {
      "width": 200,
      "height": 50,
      "title": "Hong Kong",
      "titleFontSize": 32,
      "titleColor": "#ffffff",
      "content": "",
      "contentColor": "",
      "contentFontSize": 40,
      "paddingLeft": 90,
      "paddingRight": 60,
      "paddingTop": 110,
      "fontFamily": "Arial",
      "bgImgUrl": ""
    }
  },
  {
    "lng": 120.3929,
    "lat": 36.1040,
    "content": {
      "width": 200,
      "height": 50,
      "title": "Qingdao",
      "titleFontSize": 32,
      "titleColor": "#ffffff",
      "content": "",
      "contentColor": "",
      "contentFontSize": 40,
      "paddingLeft": 90,
      "paddingRight": 60,
      "paddingTop": 110,
      "fontFamily": "Arial",
      "bgImgUrl": ""
    }
  },
  {
    "lng": 116.4079,
    "lat": 39.9208,
    "content": {
      "width": 200,
      "height": 50,
      "title": "Beijing",
      "titleFontSize": 32,
      "titleColor": "#ffffff",
      "content": "",
      "contentColor": "",
      "contentFontSize": 40,
      "paddingLeft": 90,
      "paddingRight": 60,
      "paddingTop": 110,
      "fontFamily": "Arial",
      "bgImgUrl": ""
    }
  },
  {
    "lng": 114.6368,
    "lat": 41.93111,
    "content": {
      "width": 200,
      "height": 50,
      "title": "Zhangjiakou",
      "titleFontSize": 32,
      "titleColor": "#ffffff",
      "content": "",
      "contentColor": "",
      "contentFontSize": 40,
      "paddingLeft": 90,
      "paddingRight": 60,
      "paddingTop": 110,
      "fontFamily": "Arial",
      "bgImgUrl": ""
    }
  },
  {
    "lng": 111.5943,
    "lat": 39.8301,
    "content": {
      "width": 200,
      "height": 50,
      "title": "Hohhot",
      "titleFontSize": 32,
      "titleColor": "#ffffff",
      "content": "",
      "contentColor": "",
      "contentFontSize": 40,
      "paddingLeft": 90,
      "paddingRight": 60,
      "paddingTop": 110,
      "fontFamily": "Arial",
      "bgImgUrl": ""
    }
  },
  {
    "lng": 119.1666,
    "lat": 29.3838,
    "content": {
      "width": 200,
      "height": 50,
      "title": "Hangzhou",
      "titleFontSize": 32,
      "titleColor": "#ffffff",
      "content": "",
      "contentColor": "",
      "contentFontSize": 40,
      "paddingLeft": 90,
      "paddingRight": 60,
      "paddingTop": 110,
      "fontFamily": "Arial",
      "bgImgUrl": ""
    }
  },
  {
    "lng": 121.5009,
    "lat": 31.2187,
    "content": {
      "width": 200,
      "height": 50,
      "title": "Shanghai",
      "titleFontSize": 32,
      "titleColor": "#ffffff",
      "content": "",
      "contentColor": "",
      "contentFontSize": 40,
      "paddingLeft": 90,
      "paddingRight": 60,
      "paddingTop": 110,
      "fontFamily": "Arial",
      "bgImgUrl": ""
    }
  },
  {
    "lng": 114.3640,
    "lat": 22.6885,
    "content": {
      "width": 200,
      "height": 50,
      "title": "Shenzhen",
      "titleFontSize": 32,
      "titleColor": "#ffffff",
      "content": "",
      "contentColor": "",
      "contentFontSize": 40,
      "paddingLeft": 90,
      "paddingRight": 60,
      "paddingTop": 110,
      "fontFamily": "Arial",
      "bgImgUrl": ""
    }
  }
]